City_ID,City,Lat,Lng,Max Temp,Humidity,Cloudiness,Wind Speed,Country,Date
0,blackmans bay,-43.0167,147.3167,55.53,89,0,3.4,AU,1742316047
1,kongsberg,59.6652,9.6465,51.91,98,33,1.83,NO,1742316048
2,iqaluit,63.7506,-68.5145,1.13,59,20,16.11,CA,1742316049
3,yellowknife,62.456,-114.3525,-10.44,77,0,3.44,CA,1742316050
4,bethel,41.3712,-73.414,51.73,37,0,11.5,US,1742316051
5,amga,60.8953,131.9608,-10.77,100,96,1.23,RU,1742316052
6,beira,-19.8436,34.8389,80.69,83,75,9.22,MZ,1742316053
7,aykhal,66.0,111.5,17.62,100,94,9.86,RU,1742316055
8,yoloten,37.2989,62.3597,70.11,26,0,11.48,TM,1742316056
9,avarua,-21.2078,-159.775,80.65,83,75,11.5,CK,1742316057
10,kuvshinovo,57.0295,34.1725,27.88,78,97,5.12,RU,1742316059
11,mamou,10.5,-12.0,91.0,30,90,8.12,GN,1742316060
12,north bay,46.3168,-79.4663,44.94,60,40,6.91,CA,1742315848
13,bezopasnoye,45.6483,41.936,45.79,78,100,13.89,RU,1742316063
14,wynyard,-41.0,145.7167,56.19,88,4,1.99,AU,1742316064
15,lorengau,-2.0226,147.2712,82.02,79,100,13.38,PG,1742316065
16,margaret river,-33.95,115.0667,65.05,74,100,10.94,AU,1742316066
17,mejit,10.2753,170.8646,80.4,82,99,23.44,MH,1742316067
18,adamstown,-25.066,-130.1015,76.15,75,5,3.33,PN,1742316068
19,port-aux-francais,-49.35,70.2167,41.79,89,98,23.76,TF,1742316069
20,kupang,-10.1667,123.5833,77.58,94,40,3.44,ID,1742316071
21,broome,42.2506,-75.833,50.47,54,1,1.99,US,1742316072
22,la'ie,21.6477,-157.9253,74.1,82,100,5.01,US,1742316073
23,ushuaia,-54.8,-68.3,49.66,50,75,12.66,AR,1742316036
24,ust-nera,64.5667,143.2,-12.12,98,100,0.98,RU,1742316075
25,buta,2.7858,24.73,70.86,99,100,2.04,CD,1742316076
26,st. john's,47.5649,-52.7093,58.39,88,75,21.85,CA,1742316067
27,carnarvon,-24.8667,113.6333,78.01,76,0,12.35,AU,1742316079
28,utrik,11.2278,169.8474,80.42,78,100,23.58,MH,1742316080
29,guanare,9.0418,-69.7421,91.54,46,99,4.36,VE,1742316081
30,waitangi,-43.9535,-176.5597,63.82,95,74,5.01,NZ,1742316083
31,remire-montjoly,4.9167,-52.2667,89.64,62,40,13.8,GF,1742316084
32,grytviken,-54.2811,-36.5092,48.67,89,71,7.31,GS,1742316085
33,port elizabeth,-33.918,25.5701,71.89,85,0,9.22,ZA,1742316087
34,badger,64.8,-147.5333,-0.15,57,75,6.91,US,1742316088
35,miracema do tocantins,-9.5618,-48.3967,88.88,61,15,2.46,BR,1742316089
36,guiratinga,-16.3494,-53.7583,89.1,49,98,2.86,BR,1742316090
37,bilibino,68.0546,166.4372,-20.67,84,56,4.05,RU,1742316091
38,tarariras,-34.2833,-57.6167,79.72,35,0,11.27,UY,1742316093
39,luderitz,-26.6481,15.1594,73.42,65,13,4.34,NA,1742316094
40,olonkinbyen,70.9221,-8.7187,16.65,71,100,17.29,SJ,1742316095
41,touros,-5.1989,-35.4608,83.34,68,81,12.53,BR,1742316096
42,sola,-13.8833,167.55,82.44,77,22,15.99,VU,1742316097
43,hadibu,12.65,54.0333,80.04,73,0,7.56,YE,1742316098
44,tual,-5.6667,132.75,82.38,81,100,15.97,ID,1742316099
45,enriquillo,17.9,-71.2333,81.73,57,30,11.34,DO,1742316101
46,puerto ayora,-0.7393,-90.3518,82.04,77,37,10.87,EC,1742316102
47,isafjordur,66.0755,-23.124,44.64,76,40,4.61,IS,1742316103
48,n'zeto,-7.2312,12.8666,82.36,73,100,7.34,AO,1742316104
49,hamilton,39.1834,-84.5333,65.08,41,0,9.22,US,1742315979
50,susuman,62.7833,148.1667,-24.3,100,99,2.73,RU,1742316106
51,edinburgh of the seven seas,-37.0676,-12.3116,57.85,66,16,25.01,SH,1742316107
52,yeraliyev,43.2,51.65,54.9,69,56,9.51,KZ,1742316109
53,geraldton,-28.7667,114.6,68.41,73,0,6.91,AU,1742316110
54,haiku-pauwela,20.9219,-156.3051,71.2,73,100,14.0,US,1742316111
55,wajir,1.7471,40.0573,94.96,36,20,9.22,KE,1742316112
56,wailua homesteads,22.0669,-159.378,68.79,96,40,11.5,US,1742316113
57,constantia,44.1833,28.65,36.28,32,45,17.2,RO,1742316046
58,at taj,24.2049,23.2857,83.55,15,0,11.23,LY,1742316115
59,bubaque,11.2833,-15.8333,74.41,75,35,15.17,GW,1742316117
60,eyl,7.9803,49.8164,81.25,77,0,12.35,SO,1742316118
61,kayangel,8.0823,134.7173,83.32,77,100,18.23,PW,1742316119
62,west island,-12.1568,96.8225,78.78,94,100,32.21,CC,1742316120
63,hawaiian paradise park,19.5933,-154.9731,68.9,88,40,6.91,US,1742316121
64,qaqortoq,60.7167,-46.0333,31.75,67,100,3.74,GL,1742316122
65,stanley,54.868,-1.6985,45.52,66,0,9.22,GB,1742316123
66,ribeira grande,38.5167,-28.7,57.6,67,40,25.32,PT,1742316124
67,hermanus,-34.4187,19.2345,77.81,61,8,10.92,ZA,1742316126
68,muriti,-1.9833,32.9167,76.32,69,58,2.44,TZ,1742316127
69,tura,25.5198,90.2201,70.92,20,0,2.95,IN,1742316128
70,chonchi,-42.6128,-73.8092,64.62,42,17,1.14,CL,1742316129
71,ilulissat,69.2167,-51.1,32.02,40,75,10.36,GL,1742316130
72,bredasdorp,-34.5322,20.0403,68.36,81,21,11.34,ZA,1742316132
73,vernon,50.2581,-119.2691,39.43,39,22,3.44,CA,1742316133
74,ghat,24.9647,10.1728,90.27,7,9,18.63,LY,1742316135
75,petropavlovsk-kamchatsky,53.0452,158.6483,16.39,53,20,6.71,RU,1742316136
76,santo antonio do ica,-3.1022,-67.9397,78.89,92,97,4.63,BR,1742316137
77,whitehorse,60.7161,-135.0538,18.1,72,75,5.75,CA,1742316139
78,bermejillo,25.8833,-103.6167,79.41,13,5,6.04,MX,1742316140
79,saldanha,-33.0117,17.9442,70.65,62,22,9.1,ZA,1742316141
80,ciudad madero,22.2667,-97.8333,75.4,60,0,16.11,MX,1742316142
81,mbanza kongo,-6.267,14.2401,75.92,83,97,1.99,AO,1742316143
82,saipan,15.1355,145.701,79.65,84,20,8.05,MP,1742316144
83,nanning,22.8167,108.3167,61.25,42,100,6.11,CN,1742316146
84,albany,42.6001,-73.9662,44.92,46,1,4.05,US,1742316131
85,bikenibeu village,1.3673,173.1241,80.56,89,20,12.66,KI,1742316148
86,puerto natales,-51.7236,-72.4875,55.85,30,75,20.71,CL,1742316149
87,ad douiem,14.0012,32.3116,90.93,12,12,11.43,SD,1742316150
88,sur,22.5667,59.5289,75.18,72,0,8.01,OM,1742316151
89,fort mcmurray,56.7268,-111.381,15.31,62,100,0.0,CA,1742316152
90,argo,37.6333,22.7333,49.84,89,100,2.75,GR,1742316155
91,isangel,-19.55,169.2667,76.68,92,100,4.94,VU,1742316156
92,camiri,-20.05,-63.5167,74.98,83,100,0.0,BO,1742316157
93,arraial do cabo,-22.9661,-42.0278,91.36,54,0,13.8,BR,1742316104
94,atafu village,-8.5421,-172.5159,83.68,77,97,13.2,TK,1742316159
95,anadyr,64.75,177.4833,-17.9,76,0,6.71,RU,1742316160
96,sao domingos do maranhao,-5.5758,-44.3853,79.02,77,100,5.1,BR,1742316162
97,alice springs,-23.7,133.8833,72.95,38,69,3.44,AU,1742315960
98,cajabamba,-7.6167,-78.05,66.0,61,66,4.05,PE,1742316164
99,papatowai,-46.5619,169.4708,52.07,78,77,6.85,NZ,1742316165
100,chernomorskoye,45.5039,32.6997,39.31,38,100,23.82,UA,1742316166
101,houlton,46.1262,-67.8403,34.72,63,0,13.8,US,1742316168
102,chibougamau,49.9168,-74.3659,22.62,80,100,9.22,CA,1742316169
103,swakopmund,-22.6833,14.5333,65.71,85,100,5.46,NA,1742316170
104,weno,7.4515,151.8468,81.75,80,100,20.07,FM,1742316171
105,la ronge,55.1001,-105.2842,10.65,61,20,5.75,CA,1742316172
106,oriximina,-1.7656,-55.8661,86.4,68,82,5.64,BR,1742316173
107,dadukou,26.5479,101.7054,43.86,94,100,2.55,CN,1742316174
108,tepatitlan de morelos,20.8167,-102.7333,76.05,31,0,6.35,MX,1742316175
109,dudinka,69.4058,86.1778,14.67,95,100,9.73,RU,1742316177
110,brisas de zicatela,15.8369,-97.0419,83.77,48,5,6.78,MX,1742316178
111,laojunmiao,39.8333,97.7333,31.19,32,14,2.15,CN,1742316179
112,aqadyr,48.2553,72.8483,24.98,80,94,7.43,KZ,1742316180
113,garden city,42.3256,-83.331,55.35,55,75,12.66,US,1742316032
114,sitka,57.0531,-135.33,39.09,65,75,9.22,US,1742316183
115,paradip garh,20.3167,86.6167,76.6,93,3,5.55,IN,1742316185
116,salida,37.7058,-121.0849,50.09,85,0,8.05,US,1742316186
117,nelson bay,-32.7167,152.15,68.0,86,94,5.99,AU,1742316187
118,kashgar,39.4547,75.9797,47.41,18,0,6.71,CN,1742316188
119,monte azul,-15.155,-42.8747,96.21,22,64,6.17,BR,1742316178
120,caninde,-4.3589,-39.3117,75.65,89,100,2.93,BR,1742316190
121,la passe,45.5549,-0.8967,57.81,66,99,12.19,FR,1742316191
122,tommot,58.9564,126.2925,6.51,99,100,0.31,RU,1742316193
123,uturoa,-16.7333,-151.4333,82.76,76,8,13.76,PF,1742316194
124,khovd,48.0056,91.6419,15.48,70,77,2.46,MN,1742316195
125,tazovsky,67.4667,78.7,6.73,91,67,11.43,RU,1742316196
126,jhargram,22.45,86.9833,79.95,60,19,0.94,IN,1742316197
127,vilyuchinsk,52.9306,158.4028,17.87,79,97,14.23,RU,1742316198
128,tidjikja,18.5564,-11.4271,98.4,10,46,9.17,MR,1742316199
129,bambari,5.768,20.6757,72.43,94,100,4.47,CF,1742316201
130,mar del plata,-38.0023,-57.5575,77.02,72,40,10.36,AR,1742315911
131,lebu,-37.6167,-73.65,61.54,71,1,18.21,CL,1742316203
132,dalandzadgad,43.5708,104.425,34.38,23,56,7.29,MN,1742316204
133,mount gambier,-37.8333,140.7667,51.15,93,0,4.59,AU,1742316205
134,tolanaro,-25.0319,46.9987,72.64,71,100,13.2,MG,1742316206
135,spring creek,40.7266,-115.5859,29.8,78,93,18.77,US,1742316207
136,kapuskasing,49.4169,-82.4331,30.2,86,100,6.91,CA,1742316001
137,paracuru,-3.41,-39.0306,75.83,91,100,3.04,BR,1742316210
138,jamestown,42.097,-79.2353,57.02,43,3,5.99,US,1742316211
139,kingston,17.997,-76.7936,87.17,66,20,13.8,JM,1742315952
140,aqsay,51.1678,52.995,42.06,96,100,4.74,KZ,1742316213
141,uzda,53.4627,27.2137,32.88,98,100,8.55,BY,1742316214
142,port mathurin,-19.6833,63.4167,82.22,77,37,13.94,MU,1742316216
143,palikir - national government center,6.9248,158.1611,81.34,83,100,5.75,FM,1742316217
144,veraval,20.9,70.3667,76.57,64,0,15.21,IN,1742316218
145,tralee,52.2704,-9.7026,50.25,66,40,16.11,IE,1742315971
146,kalmunai,7.4167,81.8167,80.04,84,100,5.91,LK,1742316220
147,machali,-34.1833,-70.6667,79.88,29,0,2.3,CL,1742316221
148,nemuro,43.3236,145.575,28.33,79,59,4.85,JP,1742316223
149,alaghsas,17.0187,8.0168,102.09,6,0,8.05,NE,1742316224
150,kristiansund,63.1115,7.732,43.45,87,75,29.93,NO,1742316225
151,tiksi,71.6872,128.8694,-3.73,99,42,5.17,RU,1742316226
152,las tablas,7.7667,-80.2833,88.18,99,87,17.92,PA,1742316227
153,bardai,11.65,7.2333,92.08,4,100,8.41,NG,1742316228
154,klyuchi,52.2667,79.1667,35.4,92,99,10.96,RU,1742316229
155,sterling,39.0062,-77.4286,59.56,30,0,10.36,US,1742316169
156,camana,-16.6228,-72.7111,73.74,73,100,7.56,PE,1742316168
157,punta arenas,-53.15,-70.9167,48.31,53,75,19.57,CL,1742316113
158,kardla,58.9978,22.7492,42.78,65,69,8.05,EE,1742316235
159,sinabang,2.4803,96.3801,79.45,81,87,3.02,ID,1742316236
160,figuig (centre),32.1089,-1.2286,70.18,24,22,3.85,MA,1742316237
161,ascencion,31.1,-107.9833,66.72,16,24,41.29,MX,1742316238
162,quellon,-43.1167,-73.6167,59.25,72,0,6.91,CL,1742316240
163,alamogordo,32.8995,-105.9603,69.15,14,0,26.46,US,1742316241
164,borogontsy,62.6683,131.1683,-16.87,100,88,1.59,RU,1742316242
165,santiago de cao,-7.9589,-79.2392,69.93,83,91,9.22,PE,1742316243
166,egilsstadir,65.2653,-14.3948,48.11,53,0,5.75,IS,1742316244
167,ibague,4.4389,-75.2322,69.71,88,75,4.61,CO,1742316036
168,ad dawadimi,24.5077,44.3924,79.95,21,0,6.93,SA,1742316248
169,xilin hot,43.9667,116.0333,29.26,53,0,6.73,CN,1742316249
170,udachny,66.4167,112.4,19.63,95,96,6.87,RU,1742316250
171,zheleznodorozhnyy,55.7503,38.0042,31.08,40,20,4.32,RU,1742316251
172,cidreira,-30.1811,-50.2056,79.92,58,26,11.88,BR,1742316252
173,ust-tsilma,65.441,52.1498,14.25,93,50,6.51,RU,1742316254
174,iskateley,67.6803,53.1512,13.26,87,93,15.46,RU,1742316255
175,aasiaat,68.7098,-52.8699,21.45,82,100,7.38,GL,1742316256
176,lompoc,34.6391,-120.4579,57.02,67,20,17.27,US,1742316258
177,colonia,50.9333,6.95,53.96,21,0,11.5,DE,1742316259
178,nova sintra,14.8667,-24.7167,70.7,82,9,31.43,CV,1742316260
179,taro,-8.3862,115.28,66.04,100,100,0.49,ID,1742316262
180,rio grande,-32.035,-52.0986,77.45,59,1,14.58,BR,1742316031
181,port lincoln,-34.7333,135.8667,65.7,69,0,8.93,AU,1742316265
182,bayji,34.9311,43.487,75.43,27,100,10.51,IQ,1742316266
183,parabel',58.6978,81.4825,36.93,99,100,7.49,RU,1742316267
184,taichung,24.1469,120.6839,54.48,90,20,4.0,TW,1742316269
185,bengkulu,-3.8004,102.2655,76.24,89,92,6.44,ID,1742316270
186,georgetown,5.4112,100.3354,85.95,61,20,5.75,MY,1742315876
187,palmer,42.1584,-72.3287,50.83,39,75,12.66,US,1742316272
188,port-vila,-17.7338,168.3219,74.8,94,20,2.3,VU,1742316273
189,awjilah,29.1081,21.2869,72.36,20,1,8.46,LY,1742316274
190,cabo san lucas,22.8909,-109.9124,77.5,56,0,1.99,MX,1742316275
191,ulladulla,-35.35,150.4667,61.02,80,83,4.97,AU,1742316276
192,invercargill,-46.4,168.35,50.02,92,79,7.0,NZ,1742316278
193,kill devil hills,36.0307,-75.676,50.02,59,0,17.27,US,1742316279
194,rangia,26.4667,91.6333,72.88,17,1,4.65,IN,1742316280
195,waiuku,-37.25,174.75,60.67,73,31,5.66,NZ,1742316281
196,happy valley-goose bay,53.3168,-60.3315,25.11,33,20,2.3,CA,1742316282
197,crane,31.3974,-102.3501,75.72,14,33,11.81,US,1742316136
198,brookings,44.3114,-96.7984,33.8,75,0,10.36,US,1742316284
199,las palmas de gran canaria,28.0997,-15.4134,68.13,64,75,4.61,ES,1742316285
200,khandyga,62.6667,135.6,-26.63,100,74,1.83,RU,1742316287
201,rongelap,11.1635,166.8941,80.6,78,100,20.15,MH,1742316288
202,enewetak,11.3474,162.3373,80.11,76,92,20.83,MH,1742316289
203,jiuquan,39.7432,98.5174,37.08,31,2,1.66,CN,1742316290
204,eydhafushi,5.1033,73.0708,83.21,73,24,2.53,MV,1742316291
205,miri,4.4148,114.0089,78.94,94,40,16.11,MY,1742316292
206,booue,-0.0921,11.9385,78.93,83,96,2.39,GA,1742316293
207,derzhavinsk,51.1,66.3167,39.38,79,94,15.46,KZ,1742316294
208,sahy,48.0741,18.9495,37.56,40,0,5.48,SK,1742316296
209,gaiman,-43.2897,-65.4929,66.4,22,29,11.83,AR,1742316297
210,singaraja,-8.112,115.0882,78.94,83,100,8.23,ID,1742316298
211,basco,20.4487,121.9702,68.36,76,100,31.74,PH,1742316299
212,siguiri,11.6667,-9.5,104.32,16,85,8.93,GN,1742316300
213,kodiak,57.79,-152.4072,33.31,100,100,4.61,US,1742316301
214,djenne,13.9061,-4.5533,106.57,6,11,9.44,ML,1742316303
215,ntoum,0.3833,9.7833,82.31,74,66,6.73,GA,1742316304
216,port macquarie,-31.4333,152.9167,68.07,92,100,1.01,AU,1742316305
217,revda,56.801,59.9303,29.57,95,100,5.39,RU,1742316306
218,manokwari,-0.8667,134.0833,77.7,82,90,5.14,ID,1742316307
219,antalaha,-14.9003,50.2788,79.25,80,100,11.25,MG,1742316308
220,zharkent,44.1628,80.0,50.59,30,0,5.95,KZ,1742316063
221,abepura,-2.6333,140.5833,74.21,100,20,2.3,ID,1742316311
222,roma,43.2128,-75.4557,49.66,53,1,5.93,US,1742316123
223,aral,40.5156,81.2636,48.36,21,0,8.08,CN,1742316313
224,nouadhibou,20.931,-17.0347,63.7,83,0,29.28,MR,1742316314
225,fale old settlement,-9.3852,-171.2468,83.34,78,81,11.97,TK,1742316315
226,coquimbo,-29.9533,-71.3436,67.98,76,100,6.91,CL,1742316316
227,huaiyuan chengguanzhen,32.9589,117.1657,41.31,43,74,2.53,CN,1742316318
228,berasia,23.6333,77.4333,76.91,19,0,7.07,IN,1742316319
229,sandnessjoen,66.0217,12.6316,42.91,87,75,27.63,NO,1742316321
230,ust'-ilimsk,58.0006,102.6619,34.39,98,100,9.73,RU,1742316322
231,ancud,-41.8697,-73.8203,60.53,57,10,4.03,CL,1742316323
232,talnakh,69.4865,88.3972,17.73,96,100,4.85,RU,1742316325
233,fisterra,42.9049,-9.2629,55.98,87,93,17.96,ES,1742316326
234,lethem,3.3803,-59.7968,89.35,48,100,7.31,GY,1742316327
235,guayaramerin,-10.8368,-65.3614,86.05,70,40,2.3,BO,1742316328
236,vorgashor,67.5833,63.95,12.52,92,92,17.47,RU,1742316329
237,prado,-17.3411,-39.2208,84.07,60,46,7.92,BR,1742316330
238,codrington,-38.2667,141.9667,52.92,90,0,6.2,AU,1742316333
239,fortuna,40.5982,-124.1573,47.98,82,46,5.99,US,1742316334
240,christchurch,-43.5333,172.6333,52.03,92,75,16.11,NZ,1742316335
241,altai,46.3722,96.2583,11.93,41,0,1.45,MN,1742316336
242,mecca,21.4267,39.8261,84.04,46,0,10.51,SA,1742316337
243,villanueva,15.3167,-88.0,72.59,94,100,5.75,HN,1742316339
244,fort bragg,35.139,-79.006,63.91,25,0,10.36,US,1742316341
245,severo-yeniseyskiy,60.3725,93.0408,30.79,97,100,10.76,RU,1742316342
246,obihiro,42.9172,143.2044,12.49,94,49,3.04,JP,1742316343
247,lethbridge,49.7,-112.8186,26.71,86,100,12.66,CA,1742316344
248,tsengel,49.4783,100.8894,27.43,38,0,6.35,MN,1742316345
249,thabazimbi,-24.5917,27.4116,73.67,55,80,1.88,ZA,1742316346
250,smithers,54.7804,-127.1743,28.72,64,100,9.22,CA,1742316347
251,port alfred,-33.5906,26.891,70.18,91,7,1.99,ZA,1742316349
252,hobyo,5.3505,48.5268,82.29,79,26,13.89,SO,1742316350
253,burang,30.25,81.1667,1.58,78,0,4.63,CN,1742316351
254,san ignacio de velasco,-16.3667,-60.95,84.72,71,81,2.51,BO,1742316352
255,queenstown,-31.8976,26.8753,67.03,71,24,10.11,ZA,1742316352
256,ende,-8.8432,121.6623,75.6,92,100,2.75,ID,1742316354
257,akureyri,65.6835,-18.0878,49.93,57,75,11.5,IS,1742316355
258,longyearbyen,78.2186,15.6401,3.04,60,40,11.5,SJ,1742316357
259,sao joao da barra,-21.6403,-41.0511,87.89,73,71,13.49,BR,1742316358
260,al 'amarah,31.8406,47.1396,80.94,20,32,7.74,IQ,1742316359
261,chui,-33.6971,-53.4616,81.21,43,16,6.64,UY,1742316360
262,college,64.8569,-147.8028,-0.42,60,75,6.91,US,1742316361
263,el quebrachal,-25.2833,-64.0667,88.59,40,3,7.43,AR,1742316363
264,yemetsk,63.4721,41.7941,20.1,91,65,7.81,RU,1742316364
265,lashio,22.9333,97.75,66.43,58,41,2.75,MM,1742316366
266,raja,8.4596,25.678,91.08,14,69,3.71,SS,1742316367
267,nchelenge,-9.3451,28.734,72.75,84,59,7.74,ZM,1742316369
268,fortaleza,-3.7227,-38.5247,87.93,58,20,17.27,BR,1742316351
269,byumba,-1.5763,30.0675,56.8,89,92,2.91,RW,1742316372
270,tbeng meanchey,13.8167,104.9667,75.31,58,60,3.27,KH,1742316373
271,pader palwo,2.8006,33.135,82.38,40,70,2.98,UG,1742316374
272,greymouth,-42.4667,171.2,47.79,89,84,6.55,NZ,1742316376
273,zhangatas,43.5667,69.75,56.46,35,0,6.85,KZ,1742316377
274,titao,13.7667,-2.0667,105.87,5,5,12.01,BF,1742316378
275,whangarei,-35.7317,174.3239,52.32,92,72,2.77,NZ,1742316379
276,bosobolo,4.1833,19.9,75.94,73,100,3.89,CD,1742316380
277,salinas,36.6777,-121.6555,54.28,78,0,0.0,US,1742316381
278,adam,22.3756,57.5233,77.81,18,0,12.12,OM,1742316382
279,dwarka,22.2394,68.9678,76.98,67,0,15.03,IN,1742316383
280,impfondo,1.6381,18.0667,70.75,98,100,3.85,CG,1742316385
281,hudiksvall,61.729,17.1036,42.04,68,100,14.25,SE,1742316386
282,puerto colombia,10.9878,-74.9547,86.09,75,100,21.5,CO,1742316387
283,rolla,37.9514,-91.7713,71.51,39,0,18.41,US,1742316280
284,miquelon,47.0975,-56.3814,37.47,100,100,10.85,PM,1742316389
285,vila franca do campo,37.7167,-25.4333,52.21,78,100,20.8,PT,1742316390
286,kitui,-1.367,38.0106,70.75,78,91,5.26,KE,1742316391
287,formosa do rio preto,-11.0483,-45.1931,100.0,22,35,3.58,BR,1742316393
288,moanda,-1.5575,13.2178,84.43,71,97,3.62,GA,1742316394
289,svetlyy,54.675,20.1347,36.75,90,74,14.25,RU,1742316395
290,agenebode,7.106,6.6966,97.36,32,94,8.68,NG,1742316396
291,al ghayzah,16.2079,52.176,77.9,77,0,6.29,YE,1742316397
292,westport,41.1415,-73.3579,53.73,37,0,10.36,US,1742316398
293,antsiranana,-12.2787,49.2917,78.4,88,79,12.77,MG,1742316399
294,livingston,55.9029,-3.5226,45.1,71,0,14.97,GB,1742316401
295,pizarro,4.9533,-77.366,82.85,74,100,6.93,CO,1742316402
296,kirensk,57.7853,108.1119,35.11,98,100,10.76,RU,1742316403
297,boende,-0.2167,20.8667,69.04,98,100,2.93,CD,1742316404
298,tofol,5.3248,163.0078,82.31,79,100,23.13,FM,1742316405
299,qarazhal,48.0078,70.7903,35.83,73,100,12.77,KZ,1742316406
300,berezna,51.5716,31.7846,30.61,80,100,10.54,UA,1742316407
301,cole harbour,44.6724,-63.4751,42.76,94,100,14.97,CA,1742316409
302,ramkola,26.9042,83.8411,72.95,17,0,10.13,IN,1742316410
303,hilo,19.7297,-155.09,69.49,90,40,6.91,US,1742316411
304,sassandra,4.95,-6.0833,85.14,71,98,10.2,CI,1742316412
305,san antonio de pale,-1.4014,5.6325,82.47,73,62,11.63,GQ,1742316414
306,oodweyne,9.4092,45.064,81.41,40,85,6.62,SO,1742316415
307,hirara,24.8,125.2833,60.66,51,75,21.85,JP,1742316417
308,huarmey,-10.0681,-78.1522,75.61,76,86,7.56,PE,1742316418
309,puerto deseado,-47.7503,-65.8938,58.15,41,67,23.53,AR,1742316419
310,shenjiamen,29.9576,122.298,42.6,63,86,7.85,CN,1742316420
311,igurubi,-4.0,33.7,66.81,80,92,13.89,TZ,1742316421
312,newman,37.3138,-121.0208,51.04,80,7,3.0,US,1742316423
313,saudarkrokur,65.7461,-19.6394,39.36,97,98,11.07,IS,1742316425
314,krutinka,56.0055,71.5113,34.09,94,100,5.86,RU,1742316426
315,santa terezinha,-29.9002,-50.0904,77.31,70,82,10.4,BR,1742316427
316,lata,40.1629,-8.3327,63.48,62,94,6.46,PT,1742316428
317,bayan,46.0833,127.4,25.54,42,76,5.37,CN,1742316429
318,valdivia,-39.8142,-73.2459,66.29,29,14,2.75,CL,1742316189
319,ambovombe,-25.1667,46.0833,71.78,68,0,21.94,MG,1742316431
320,kerikeri,-35.2268,173.9474,54.91,88,79,3.98,NZ,1742316208
321,pervomayskoye,43.919,46.7102,55.2,54,47,6.51,RU,1742316434
322,nebbi,2.4783,31.0889,77.02,58,54,2.93,UG,1742316435
323,karamay,45.6004,84.8661,39.43,36,6,3.87,CN,1742316436
324,puebla de la calzada,38.8793,-6.627,62.51,63,40,10.36,ES,1742316437
325,san luis,-33.295,-66.3356,87.93,24,0,5.41,AR,1742316303
326,sanctuary point,-35.1114,150.629,60.57,84,66,5.86,AU,1742316439
327,coari,-4.085,-63.1414,83.71,83,97,4.25,BR,1742316440
328,monrovia,6.3005,-10.7969,83.25,74,93,11.36,LR,1742316441
329,hithadhoo,-0.6,73.0833,83.23,73,100,5.59,MV,1742316443
330,fuyang,32.9,115.8167,42.4,50,76,5.12,CN,1742316444
331,xichang,27.8964,102.2634,36.79,86,93,2.66,CN,1742316445
332,coruripe,-10.1256,-36.1756,85.89,53,37,11.81,BR,1742316365
333,waddan,29.1614,16.139,75.43,17,0,11.01,LY,1742316447
334,dikwa,12.024,13.9165,91.45,5,58,12.35,NG,1742316448
335,waycross,31.2136,-82.354,68.05,24,0,4.61,US,1742316449
336,labrador city,52.9463,-66.9114,10.31,56,20,8.05,CA,1742316450
337,castillos,-34.1667,-53.8333,80.87,44,53,7.4,UY,1742316452
338,kuqa,41.7278,82.9364,44.8,25,0,5.17,CN,1742316453
339,bahia blanca,-38.7196,-62.2724,74.41,50,7,15.55,AR,1742316309
340,ometepec,16.6833,-98.4167,92.05,29,2,5.03,MX,1742316455
341,morondava,-20.2833,44.2833,81.95,76,5,10.29,MG,1742316457
342,champerico,14.3,-91.9167,85.59,63,4,10.11,GT,1742316458
343,rosarito,32.3333,-117.0333,54.52,64,28,12.73,MX,1742316459
344,thompson,55.7435,-97.8558,12.36,79,75,4.61,CA,1742316461
345,chokwe,-24.5333,32.9833,75.31,69,83,10.67,MZ,1742316462
346,kailua-kona,19.6406,-155.9956,73.56,90,100,1.01,US,1742316463
347,fort leonard wood,37.7057,-92.1572,73.24,35,0,10.36,US,1742316464
348,mahibadhoo,3.7833,72.9667,82.83,75,23,3.78,MV,1742316465
349,port blair,11.6667,92.75,80.64,83,20,2.3,IN,1742316287
350,kolonia,50.9333,6.95,53.96,21,0,11.5,DE,1742316292
351,flin flon,54.7682,-101.865,13.84,67,75,10.36,CA,1742316469
352,pangody,65.85,74.4859,5.76,93,46,10.78,RU,1742316470
353,suva,-18.1416,178.4415,78.49,85,52,3.8,FJ,1742316318
354,port saint john's,-31.6229,29.5448,72.75,84,47,5.44,ZA,1742316472
355,ambodifotatra,-16.9833,49.85,81.54,73,57,24.65,MG,1742316473
356,igarka,67.4667,86.5833,19.04,90,98,15.19,RU,1742316474
357,tosontsengel,48.7567,98.2839,-7.17,97,13,1.25,MN,1742316476
358,tongchuanshi,35.0806,109.0897,42.69,30,4,5.91,CN,1742316477
359,polyarnyy,69.1989,33.4478,20.82,93,100,18.7,RU,1742316312
360,lazaro cardenas,17.9583,-102.2,85.14,34,1,6.51,MX,1742316479
361,malakal,9.5334,31.6605,98.02,20,94,3.6,SS,1742316480
362,togur,58.3631,82.8265,39.09,99,100,10.11,RU,1742316481
363,grand gaube,-20.0064,57.6608,80.38,87,80,11.86,MU,1742316482
364,maintirano,-18.0667,44.0167,81.1,79,55,3.27,MG,1742316483
365,tazacorte,28.629,-17.9293,67.17,78,40,5.01,ES,1742316485
366,daru,-9.0763,143.2092,79.18,86,100,5.3,PG,1742316486
367,tandalti,13.0167,31.8667,89.98,13,11,9.51,SD,1742316487
368,taoudenni,22.6783,-3.9836,92.5,12,33,11.23,ML,1742316488
369,alibag,18.6411,72.8792,80.19,66,0,7.58,IN,1742316489
370,fuglafjordur,62.244,-6.814,44.64,73,87,6.06,FO,1742316490
371,barcelos,41.5388,-8.6151,56.46,84,97,8.3,PT,1742316491
372,vicosa do ceara,-3.5622,-41.0922,75.52,76,100,3.09,BR,1742316492
373,orapa,-21.2833,25.3667,79.11,39,44,8.88,BW,1742316494
374,auki,-8.7676,160.7034,76.73,89,67,3.47,SB,1742316495
375,zaragoza,41.6561,-0.8773,51.03,73,75,16.11,ES,1742316228
376,mukharram al fawqani,34.8151,37.0861,59.23,70,95,11.01,SY,1742316497
377,north bend,43.4065,-124.2243,46.17,93,100,10.36,US,1742316498
378,urengoy,65.9667,78.3667,9.14,96,94,8.86,RU,1742316499
379,crucecita,-28.95,-58.9833,93.61,24,0,9.26,AR,1742316500
380,winter springs,28.6989,-81.3081,74.28,39,0,8.05,US,1742316502
381,flying fish cove,-10.4217,105.6791,76.68,94,100,10.36,CX,1742316503
382,embrun,44.5639,6.4953,38.52,79,39,4.94,FR,1742316504
383,gainesville,29.6516,-82.3248,72.97,23,0,5.75,US,1742316506
384,villamontes,-21.25,-63.5,72.84,94,100,0.0,BO,1742316507
385,chusovoy,58.3013,57.8131,9.7,96,100,2.84,RU,1742316214
386,rancho palos verdes,33.7445,-118.387,58.55,70,0,10.36,US,1742316510
387,krasnokamensk,50.0979,118.0369,7.84,97,28,4.45,RU,1742316511
388,peace river,56.2501,-117.286,8.91,92,100,9.22,CA,1742316512
389,belyy yar,53.6039,91.3903,39.09,93,40,15.66,RU,1742316513
390,mawu,34.4307,104.9176,30.13,32,99,2.98,CN,1742316514
391,namsos,64.4662,11.4957,42.71,81,75,23.02,NO,1742316515
392,ulsteinvik,62.3432,5.8487,43.3,90,100,5.99,NO,1742316516
393,nar'yan-mar,67.6713,53.087,13.21,87,92,15.41,RU,1742316518
394,north tamworth,-31.0778,150.9261,68.11,68,75,9.22,AU,1742316520
395,pozo del molle,-32.0186,-62.9198,85.64,42,0,6.11,AR,1742316464
396,yeppoon,-23.1333,150.7333,75.96,81,100,15.95,AU,1742316522
397,norfolk,42.1668,-71.2495,50.07,50,0,13.8,US,1742316229
398,howard springs,-12.497,131.047,78.71,100,100,5.32,AU,1742316524
399,huanggang,23.677,116.9996,56.57,64,27,4.05,CN,1742316526
400,arar,30.9753,41.0381,80.62,12,0,9.22,SA,1742316527
401,krasnyy yar,46.5331,48.3456,58.37,50,100,9.6,RU,1742316528
402,bonthe,7.5264,-12.505,84.24,66,91,13.49,SL,1742316529
403,shingu,33.7333,135.9833,37.58,74,60,10.71,JP,1742316530
404,east london,-33.0153,27.9116,74.34,78,20,6.91,ZA,1742316296
405,ukiah,39.1502,-123.2078,44.17,78,0,0.0,US,1742316533
406,sydney,-33.8679,151.2073,67.35,79,78,1.01,AU,1742316484
407,alofi,-19.0595,-169.9187,78.69,94,20,5.75,NU,1742316536
408,visakhapatnam,17.69,83.2093,82.29,83,20,4.61,IN,1742316538
409,kassiri,8.9372,-13.1244,84.25,59,38,11.12,SL,1742316539
410,diffa,13.3154,12.6113,87.91,4,71,7.74,NE,1742316542
411,karratha,-20.7377,116.8463,83.73,64,15,1.72,AU,1742316543
412,guiren,33.6697,118.1889,37.24,54,2,5.68,CN,1742316545
413,znamenka,52.4167,41.4311,29.89,91,99,10.96,RU,1742316546
414,francisco sa,-16.4758,-43.4883,90.72,34,99,3.47,BR,1742316548
415,gaalkacyo,6.7697,47.4308,83.77,53,45,21.63,SO,1742316549
416,lihue,21.9789,-159.3672,69.39,83,40,11.5,US,1742316550
417,saint john,45.2727,-66.0677,36.63,100,100,12.66,CA,1742315890
418,linhai,28.85,121.1167,42.13,76,54,2.64,CN,1742316552
419,dauphin,51.1494,-100.0502,23.14,80,100,13.8,CA,1742316553
420,ankang,32.68,109.0172,51.26,33,100,1.12,CN,1742316554
421,nizhnesortymskiy,62.4397,71.7603,10.96,91,28,9.98,RU,1742316555
422,kone,-21.0595,164.8658,74.19,94,100,3.6,NC,1742316557
423,yaren,-0.5472,166.916,79.86,85,60,15.64,NR,1742316558
424,tumaco,1.7986,-78.8156,84.47,68,64,4.34,CO,1742316559
425,selibaby,15.159,-12.1829,107.04,7,11,10.78,MR,1742316560
426,kununurra,-15.7667,128.7333,80.58,83,70,3.44,AU,1742316562
427,plastun,44.7561,136.2939,19.96,67,5,4.92,RU,1742316563
428,tarnogskiy gorodok,60.4997,43.5761,14.67,89,62,5.73,RU,1742316565
429,zhangjiakou,40.81,114.8794,34.81,46,0,5.21,CN,1742316566
430,nova vicosa,-17.8919,-39.3719,86.2,56,60,8.23,BR,1742316567
431,kharp,66.8014,65.8081,5.13,97,31,6.91,RU,1742316568
432,kaoma,-14.7833,24.8,68.31,81,44,5.21,ZM,1742316569
433,illizi,26.4833,8.4667,87.44,7,1,8.66,DZ,1742316570
434,tobelo,1.7284,128.0095,77.29,76,100,2.35,ID,1742316572
435,nagqu,31.5,92.0,26.01,18,100,1.92,CN,1742316573
436,labytnangi,66.6572,66.4183,5.54,89,6,9.66,RU,1742316574
437,mangrol,21.1167,70.1167,76.62,67,0,15.3,IN,1742316575
438,peterhead,57.5058,-1.7981,41.43,73,11,18.12,GB,1742316576
439,taltal,-25.4,-70.4833,69.46,72,1,5.48,CL,1742316578
440,altay,47.8667,88.1167,23.11,54,34,9.42,CN,1742316579
441,khorixas,-20.3667,14.9667,78.06,60,100,9.84,NA,1742316580
442,sorong,-0.8833,131.25,80.51,80,89,7.11,ID,1742316581
443,mount isa,-20.7333,139.5,73.17,94,100,6.91,AU,1742316582
444,gorontalo,0.5412,123.0595,73.9,96,100,3.51,ID,1742316584
445,flekkefjord,58.2971,6.6607,40.33,72,22,8.75,NO,1742316585
446,vilyuysk,63.7553,121.6247,8.74,95,89,7.34,RU,1742316586
447,yicheng,31.3705,119.8703,40.24,70,45,5.5,CN,1742316587
448,maymana,35.9214,64.7836,64.36,32,0,4.29,AF,1742316588
449,kerema,-7.9631,145.7785,76.17,90,100,2.55,PG,1742316589
450,dryden,49.7833,-92.7503,26.89,68,0,0.0,CA,1742316590
451,ghormach,35.7306,63.7826,65.35,31,0,4.79,AF,1742316592
452,qamdo,31.1667,97.2333,24.03,86,97,5.66,CN,1742316593
453,minas de marcona,-15.2119,-75.1103,73.92,53,98,13.65,PE,1742316594
454,dunedin,-45.8742,170.5036,52.81,83,39,1.99,NZ,1742316474
455,san patricio,28.017,-97.5169,76.95,46,35,22.95,US,1742316596
456,lerwick,60.1545,-1.1494,42.51,68,50,8.46,GB,1742316597
457,candelaria,13.9311,121.4233,72.7,95,100,4.9,PH,1742316598
458,piacabucu,-10.4056,-36.4344,86.25,55,3,11.32,BR,1742316399
459,kholmsk,47.0511,142.0569,16.07,80,100,3.91,RU,1742316601
460,bandar lampung,-5.4254,105.258,73.98,94,99,5.06,ID,1742316602
461,corinto,37.9407,22.9573,52.9,83,100,8.68,GR,1742316603
462,kolonia town,6.964,158.206,82.4,83,100,5.75,FM,1742316604
463,radovis,41.6383,22.4647,36.57,48,95,0.69,MK,1742316605
464,kananga,-5.8958,22.4178,73.02,76,39,1.99,CD,1742316606
465,prainha,-1.8,-53.48,83.71,78,96,1.5,BR,1742316608
466,ankazoabo,-22.2833,44.5167,72.61,70,46,8.21,MG,1742316609
467,tromso,69.6496,18.957,33.82,75,75,13.8,NO,1742316509
468,guatrache,-37.6678,-63.5302,80.62,40,0,14.41,AR,1742316543
469,papao,-17.75,-149.55,82.24,75,41,13.27,PF,1742316612
470,gadzhiyevo,69.2551,33.3362,21.06,94,100,17.43,RU,1742316613
471,caleta de carquin,-11.0925,-77.6267,75.94,76,92,8.32,PE,1742316614
472,tulchyn,48.6745,28.8464,35.92,34,6,3.0,UA,1742316616
473,odder,55.9731,10.153,42.78,75,38,12.53,DK,1742316618
474,nishinoomote,30.7333,131.0,49.93,59,100,32.66,JP,1742316619
475,barra de santo antonio,-9.4047,-35.5072,83.8,58,4,9.62,BR,1742316620
476,fordon,53.1482,18.1704,43.18,49,0,11.5,PL,1742316622
477,acarau,-2.8856,-40.12,77.16,89,100,5.93,BR,1742316543
478,libreville,0.3925,9.4537,84.22,79,20,6.91,GA,1742316625
479,kujang-up,39.8672,126.0303,26.19,47,0,3.24,KP,1742316626
480,iguatemi,-23.6803,-54.5611,74.3,87,100,4.65,BR,1742316561
481,paita,-5.0892,-81.1144,79.63,66,94,8.41,PE,1742316630
482,centenario do sul,-22.8211,-51.5953,88.3,48,57,9.66,BR,1742316340
483,cromer,52.9312,1.2989,45.14,68,0,14.83,GB,1742316632
484,envira,-7.3,-70.2167,84.45,81,100,1.86,BR,1742316633
485,mogocha,53.7333,119.7667,11.26,94,18,3.69,RU,1742316634
486,petropavl,54.8753,69.1628,36.82,89,100,7.83,KZ,1742316544
487,tarko-sale,64.9225,77.785,13.82,93,43,14.85,RU,1742316637
488,port douglas,-16.4833,145.4667,77.86,90,100,2.93,AU,1742316638
489,timimoun,29.2639,0.231,84.58,11,0,10.36,DZ,1742316639
490,essaouira,31.5125,-9.77,67.5,72,40,8.05,MA,1742316640
491,guerrero negro,27.9769,-114.0611,60.71,53,100,24.47,MX,1742316641
492,stalowa wola,50.5829,22.0533,39.92,46,22,5.01,PL,1742316642
493,sirte,31.2089,16.5887,65.5,65,0,18.84,LY,1742316644
494,midar,34.9403,-3.5331,63.84,50,12,3.62,MA,1742316645
495,mana,5.6592,-53.7767,84.36,66,99,10.6,GF,1742316646
496,dakhla,23.6848,-15.958,68.02,60,0,23.02,EH,1742316647
497,thurso,58.5927,-3.5259,43.05,64,31,3.24,GB,1742316648
498,bandarbeyla,9.4942,50.8122,80.51,84,16,10.09,SO,1742316649
499,tyukhtet,56.5389,89.3011,38.03,90,100,17.29,RU,1742316650
500,kirakira,-10.4544,161.9205,79.52,87,45,7.54,SB,1742316652
501,mount pleasant,32.7941,-79.8626,67.98,26,0,4.61,US,1742316322
502,ingeniero jacobacci,-41.3427,-69.5448,72.03,18,30,18.3,AR,1742316654
503,scone,56.4194,-3.4051,45.21,72,8,5.99,GB,1742316655
504,kismayo,-0.3582,42.5454,80.53,85,78,12.5,SO,1742316656
505,hotan,37.0997,79.9269,47.03,19,93,5.19,CN,1742316657
506,port moresby,-9.4431,147.1797,77.04,91,100,5.53,PG,1742316427
507,beledweyne,4.7358,45.2036,89.22,44,85,23.6,SO,1742316660
508,port-gentil,-0.7193,8.7815,87.76,70,40,11.5,GA,1742316661
509,leava,-14.3,-178.1667,83.44,77,78,14.47,WF,1742316662
510,watseka,40.7762,-87.7364,62.1,37,98,17.6,US,1742316664
511,contamana,-7.3333,-75.0167,87.04,67,100,3.02,PE,1742316666
512,balabac,7.9868,117.0645,80.69,86,86,11.1,PH,1742316667
513,ixtapa,20.7,-105.2,72.63,83,75,2.3,MX,1742316668
514,susaki,33.3667,133.2833,39.24,82,44,6.55,JP,1742316669
515,pariaman,-0.619,100.12,77.05,88,83,5.01,ID,1742316584
516,porto novo,6.4965,2.6036,89.42,68,97,12.3,BJ,1742316671
517,alotau,-10.3069,150.4462,78.01,91,99,2.62,PG,1742316672
518,oberwart,47.2897,16.206,34.45,49,0,3.83,AT,1742316674
519,tupa,-21.9347,-50.5136,93.58,37,16,2.46,BR,1742316675
520,alo,6.5486,4.2686,84.04,76,57,13.38,NG,1742316676
521,sharm el-sheikh,27.8518,34.305,79.09,46,1,13.04,EG,1742316677
522,praia da vitoria,38.7333,-27.0667,53.85,71,20,23.55,PT,1742316678
523,el calafate,-50.3408,-72.2768,47.98,42,100,2.95,AR,1742316679
524,salalah,17.0151,54.0924,80.69,74,0,2.3,OM,1742316681
525,saint-pierre,-21.3393,55.4781,78.48,89,75,21.85,RE,1742316543
526,saint-philippe,-21.3585,55.7679,77.67,90,100,11.5,RE,1742316683
527,razumnoye,50.5344,36.6846,29.48,59,0,4.47,RU,1742316684
528,kalajoki,64.25,23.95,37.9,83,100,20.27,FI,1742316685
529,delta,5.5,6.0,87.44,63,88,7.45,NG,1742316686
530,brockville,44.5834,-75.6826,44.74,37,1,7.16,CA,1742316688
531,celestun,20.8667,-90.4,80.92,34,0,4.0,MX,1742316689
532,alindao,5.0267,21.2088,76.42,78,100,8.16,CF,1742316690
533,fort st. john,56.2499,-120.8529,17.49,79,75,13.8,CA,1742316483
534,majuro,7.0897,171.3803,82.36,78,100,5.75,MH,1742316692
535,richards bay,-28.783,32.0377,72.84,83,100,7.31,ZA,1742316693
536,ontario,34.0633,-117.6509,54.82,71,0,3.44,US,1742316686
537,terenozek,45.05,64.9833,60.37,36,84,8.59,KZ,1742316696
538,puerto cabezas,14.0351,-83.3888,84.16,84,40,6.91,NI,1742316697
539,yomju-up,39.8933,124.5981,27.63,37,0,5.7,KP,1742316699
540,havran,39.5583,27.0983,44.22,65,75,23.02,TR,1742316700
541,glendale,33.5387,-112.186,61.83,27,0,14.97,US,1742316374
542,chunskiy,56.0815,99.6342,35.87,100,100,10.13,RU,1742316704
543,carutapera,-1.195,-46.02,77.72,93,99,4.5,BR,1742316705
544,altamira,-3.2033,-52.2064,82.49,78,75,9.22,BR,1742316706
545,illela,13.7292,5.2975,101.39,5,100,13.94,NG,1742316707
546,sarishabari,24.7333,89.8333,78.22,38,0,7.54,BD,1742316708
547,kitimat,54.0524,-128.6534,38.7,71,100,3.36,CA,1742316709
548,vanimo,-2.6741,141.3028,79.77,87,87,3.96,PG,1742316712
549,prince rupert,54.3161,-130.3201,39.29,82,75,31.07,CA,1742316713
550,villa gesell,-37.2639,-56.973,75.69,64,2,12.37,AR,1742316443
551,dawesville,30.9224,-84.0091,68.31,24,0,6.91,US,1742316715
552,ranau,5.9538,116.6641,68.23,99,96,0.81,MY,1742316716
553,lexington,37.9887,-84.4777,64.09,37,0,16.11,US,1742316295
554,kavaratti,10.5669,72.642,83.55,71,31,8.01,IN,1742316720
555,yunak,38.8142,31.7322,40.28,71,99,16.4,TR,1742316721
556,vuktyl,63.8567,57.3094,18.97,90,100,7.99,RU,1742316722
557,selfoss,63.9331,-20.9971,45.66,80,67,3.2,IS,1742316723
558,shubarshi,48.5872,57.1869,54.19,60,100,15.79,KZ,1742316724
559,fairwood,47.4484,-122.1573,41.63,86,75,4.61,US,1742316726
560,kangiwa,12.5521,3.8187,101.48,5,100,5.17,NG,1742316727
561,hiratacho,35.4333,132.8167,33.76,100,75,6.91,JP,1742316728
562,phetchabun,16.25,101.0833,80.49,55,95,5.61,TH,1742316729
563,nuuk,64.1835,-51.7216,32.61,64,75,17.27,GL,1742316730
564,shizukuishi,39.6833,140.9833,27.14,87,39,3.78,JP,1742316731
565,lubango,-14.9172,13.4925,62.62,95,100,4.16,AO,1742316732
566,shimoda,34.6667,138.95,45.3,88,100,10.36,JP,1742316733
567,ikungi,-5.1333,34.7667,64.47,92,90,7.11,TZ,1742316735
568,maputo,-25.9653,32.5892,74.62,74,4,8.75,MZ,1742316736
569,inyati,-19.6756,28.8469,65.41,66,21,11.39,ZW,1742316737
